City_ID,City,Lat,Lng,Max Temp,Humidity,Cloudiness,Wind Speed,Country,Date
0,waitangi,-43.9535,-176.5597,-176.5597,73,100,1.79,NZ,1722818966
1,aral,40.5156,81.2636,81.2636,36,100,0.6,CN,1722818967
2,jamestown,42.097,-79.2353,-79.2353,60,0,2.57,US,1722818968
3,kodiak,57.79,-152.4072,-152.4072,100,100,4.63,US,1722818969
4,margate,51.3813,1.3862,1.3862,83,46,4.9,GB,1722818881
5,lebu,-37.6167,-73.65,-73.65,92,100,13.27,CL,1722818915
6,san antonio de pale,-1.4014,5.6325,5.6325,70,83,2.87,GQ,1722818973
7,iqaluit,63.7506,-68.5145,-68.5145,100,100,1.03,CA,1722818718
8,opuwo,-18.0607,13.84,13.84,39,0,1.17,NA,1722818975
9,udachny,66.4167,112.4,112.4,44,100,4.81,RU,1722818977
10,robore,-18.3333,-59.75,-59.75,40,67,1.21,BO,1722818978
11,sarreguemines,49.0833,7.3333,7.3333,96,97,0.86,FR,1722818979
12,gunnison,38.7,-107.0673,-107.0673,81,100,1.39,US,1722818980
13,wailua homesteads,22.0669,-159.378,-159.378,72,20,6.17,US,1722818890
14,arnprior,45.4334,-76.3494,-76.3494,59,71,2.45,CA,1722818915
15,namibe,-15.1961,12.1522,12.1522,89,0,1.55,AO,1722818986
16,la tuque,47.4334,-72.7824,-72.7824,68,58,1.03,CA,1722818450
17,nellore,14.4333,79.9667,79.9667,64,100,1.75,IN,1722818988
18,invercargill,-46.4,168.35,168.35,72,17,3.13,NZ,1722818772
19,princeville,45.7668,-61.2985,-61.2985,95,100,3.09,CA,1722818991
20,hithadhoo,-0.6,73.0833,73.0833,74,100,3.89,MV,1722818769
21,tiksi,71.6872,128.8694,128.8694,63,100,5.26,RU,1722818994
22,malango,-2.9627,119.9001,119.9001,73,98,1.46,ID,1722818996
23,rib mountain,44.9128,-89.6754,-89.6754,68,0,1.54,US,1722818997
24,soran,49.78,72.8506,72.8506,62,0,3.14,KZ,1722818998
25,solnechnyy,50.7214,136.6319,136.6319,57,100,3.19,RU,1722818999
26,ushuaia,-54.8,-68.3,-68.3,59,75,3.6,AR,1722819000
27,chimbarongo,-34.7,-71.05,-71.05,62,100,0.89,CL,1722819002
28,adamstown,-25.066,-130.1015,-130.1015,79,100,7.69,PN,1722818869
29,strathmore,51.0501,-113.3852,-113.3852,46,100,5.14,CA,1722819004
30,edinburgh of the seven seas,-37.0676,-12.3116,-12.3116,77,51,13.26,SH,1722818795
31,kikwit,-5.041,18.8162,18.8162,37,100,1.09,CD,1722819006
32,port-aux-francais,-49.35,70.2167,70.2167,67,10,7.32,TF,1722819008
33,ilulissat,69.2167,-51.1,-51.1,81,75,0.0,GL,1722818750
34,grytviken,-54.2811,-36.5092,-36.5092,84,100,4.67,GS,1722819010
35,bethel,41.3712,-73.414,-73.414,88,100,0.45,US,1722818914
36,albany,42.6001,-73.9662,-73.9662,75,0,0.45,US,1722818480
37,matam,15.6175,-13.3303,-13.3303,94,100,1.03,SN,1722819014
38,haiku-pauwela,20.9219,-156.3051,-156.3051,61,20,10.29,US,1722819015
39,lycksele,64.5954,18.6735,18.6735,100,100,0.0,SE,1722819016
40,uturoa,-16.7333,-151.4333,-151.4333,71,5,7.22,PF,1722819017
41,man,7.4125,-7.5538,-7.5538,99,97,0.5,CI,1722819018
42,tofol,5.3248,163.0078,163.0078,62,75,4.12,FM,1722819020
43,quellon,-43.1167,-73.6167,-73.6167,94,100,3.13,CL,1722818775
44,ribeira grande,38.5167,-28.7,-28.7,95,16,3.13,PT,1722819022
45,palma sola,-23.9634,-64.2987,-64.2987,46,0,2.55,AR,1722819023
46,prince rupert,54.3161,-130.3201,-130.3201,89,0,6.69,CA,1722819024
47,hawaiian paradise park,19.5933,-154.9731,-154.9731,86,75,3.6,US,1722818834
48,clemencia,10.5665,-75.325,-75.325,82,100,1.52,CO,1722819027
49,justo daract,-33.8594,-65.1828,-65.1828,38,100,8.77,AR,1722818952
50,kargasok,59.0556,80.8572,80.8572,94,100,2.25,RU,1722819029
51,college,64.8569,-147.8028,-147.8028,53,75,2.06,US,1722818936
52,puerto ayora,-0.7393,-90.3518,-90.3518,93,49,1.79,EC,1722819032
53,mareno di piave,45.8475,12.3547,12.3547,74,100,2.13,IT,1722819033
54,hamilton,39.1834,-84.5333,-84.5333,68,62,3.58,US,1722818730
55,aasiaat,68.7098,-52.8699,-52.8699,91,1,2.45,GL,1722819035
56,yellowknife,62.456,-114.3525,-114.3525,43,75,5.66,CA,1722818893
57,richards bay,-28.783,32.0377,32.0377,68,100,7.49,ZA,1722819038
58,susuman,62.7833,148.1667,148.1667,38,4,2.55,RU,1722819039
59,blackmans bay,-43.0167,147.3167,147.3167,60,8,0.89,AU,1722819040
60,nizhnesortymskiy,62.4397,71.7603,71.7603,72,43,1.54,RU,1722819041
61,motygino,58.1831,94.7592,94.7592,56,12,1.27,RU,1722819042
62,bel ombre,-4.6167,55.4167,55.4167,88,40,4.12,SC,1722819044
63,yelizovo,53.1873,158.3805,158.3805,60,20,3.0,RU,1722819045
64,egilsstadir,65.2653,-14.3948,-14.3948,82,75,8.75,IS,1722819046
65,aitape,-3.1374,142.3475,142.3475,65,100,1.34,PG,1722819047
66,mazatan,14.8667,-92.45,-92.45,94,75,3.6,MX,1722819049
67,anadyr,64.75,177.4833,177.4833,100,100,8.0,RU,1722818796
68,kincardine,56.0667,-3.7167,-3.7167,97,100,3.84,GB,1722819052
69,east london,-33.0153,27.9116,27.9116,51,7,9.44,ZA,1722819053
70,prosser,46.2068,-119.7689,-119.7689,19,8,3.06,US,1722819054
71,xichang,27.8964,102.2634,102.2634,90,84,0.64,CN,1722819056
72,olonkinbyen,70.9221,-8.7187,-8.7187,98,100,3.16,SJ,1722818782
73,barcelos,41.5388,-8.6151,-8.6151,87,0,0.7,PT,1722819058
74,lihue,21.9789,-159.3672,-159.3672,64,20,6.17,US,1722818814
75,puerto natales,-51.7236,-72.4875,-72.4875,98,100,0.65,CL,1722819060
76,otjiwarongo,-20.4637,16.6477,16.6477,22,0,4.36,NA,1722819063
77,petropavlovsk-kamchatsky,53.0452,158.6483,158.6483,60,20,3.0,RU,1722819064
78,la'ie,21.6477,-157.9253,-157.9253,69,5,2.24,US,1722819065
79,aykhal,66.0,111.5,111.5,40,36,6.61,RU,1722818917
80,micheweni,-4.9667,39.8333,39.8333,73,0,4.52,TZ,1722819068
81,la ronge,55.1001,-105.2842,-105.2842,35,100,2.06,CA,1722819069
82,smithers,54.7804,-127.1743,-127.1743,20,20,4.63,CA,1722819070
83,tolanaro,-25.0319,46.9987,46.9987,82,20,1.03,MG,1722819071
84,poronaysk,49.2167,143.1167,143.1167,80,100,1.19,RU,1722819073
85,linxia chengguanzhen,35.6003,103.2064,103.2064,54,10,1.57,CN,1722819074
86,punta arenas,-53.15,-70.9167,-70.9167,93,75,1.03,CL,1722818907
87,fort bragg,35.139,-79.006,-79.006,91,20,1.54,US,1722818968
88,afaahiti,-17.75,-149.2833,-149.2833,74,6,5.05,PF,1722819035
89,enewetak,11.3474,162.3373,162.3373,76,100,4.11,MH,1722818917
90,muttupet,10.4,79.4833,79.4833,75,13,3.43,IN,1722819080
91,mwatate,-3.5029,38.3795,38.3795,82,99,3.4,KE,1722819081
92,saipan,15.1355,145.701,145.701,79,20,6.69,MP,1722818937
93,tarawa,1.419,172.984,172.984,66,20,3.6,KI,1722819083
94,papatowai,-46.5619,169.4708,169.4708,62,12,2.17,NZ,1722819086
95,vorgashor,67.5833,63.95,63.95,65,57,5.03,RU,1722819087
96,longyearbyen,78.2186,15.6401,15.6401,87,40,4.63,SJ,1722819088
97,port mathurin,-19.6833,63.4167,63.4167,73,5,6.41,MU,1722819039
98,atafu village,-8.5421,-172.5159,-172.5159,80,100,5.29,TK,1722818828
99,whitehorse,60.7161,-135.0538,-135.0538,29,20,1.03,CA,1722819092
100,touros,-5.1989,-35.4608,-35.4608,82,16,5.36,BR,1722818983
101,isafjordur,66.0755,-23.124,-23.124,85,100,8.09,IS,1722818923
102,corsano,39.8892,18.3693,18.3693,66,10,4.71,IT,1722819097
103,alofi,-19.0595,-169.9187,-169.9187,78,75,5.14,NU,1722818991
104,stanley,54.868,-1.6985,-1.6985,92,40,3.09,GB,1722819099
105,hermanus,-34.4187,19.2345,19.2345,67,70,8.16,ZA,1722819100
106,qaqortoq,60.7167,-46.0333,-46.0333,80,0,2.74,GL,1722818929
107,dunedin,-45.8742,170.5036,170.5036,58,9,1.63,NZ,1722819102
108,bikenibeu village,1.3673,173.1241,173.1241,66,20,3.6,KI,1722819104
109,mount gambier,-37.8333,140.7667,140.7667,52,8,1.54,AU,1722819105
110,mount isa,-20.7333,139.5,139.5,43,25,3.09,AU,1722819106
111,puerto deseado,-47.7503,-65.8938,-65.8938,95,95,4.79,AR,1722818894
112,nabire,-3.3667,135.4833,135.4833,82,100,1.19,ID,1722818829
113,saynshand,44.8824,110.1163,110.1163,32,0,3.8,MN,1722819110
114,ciudad lazaro cardenas,17.9583,-102.2,-102.2,80,100,3.48,MX,1722819112
115,harstad,68.799,16.5293,16.5293,73,11,1.8,NO,1722819113
116,kurumkan,54.3,110.3,110.3,54,2,0.93,RU,1722819017
117,ar ruseris,11.8659,34.3869,34.3869,89,98,2.31,SD,1722819116
118,colonia,50.9333,6.95,6.95,83,97,1.57,DE,1722819002
119,badger,64.8,-147.5333,-147.5333,53,0,2.06,US,1722819118
120,nyakabindi,-2.6333,33.9833,33.9833,41,89,2.67,TZ,1722819119
121,dryden,49.7833,-92.7503,-92.7503,55,75,2.06,CA,1722819121
122,daru,-9.0763,143.2092,143.2092,83,87,6.2,PG,1722819122
123,portland,45.5234,-122.6762,-122.6762,35,40,4.63,US,1722818576
124,vrede,-27.4257,29.1659,29.1659,29,99,2.01,ZA,1722819124
125,remire-montjoly,4.9167,-52.2667,-52.2667,89,0,1.03,GF,1722819021
126,pelotas,-31.7719,-52.3425,-52.3425,96,75,3.09,BR,1722819031
127,quelimane,-17.8786,36.8883,36.8883,93,0,1.03,MZ,1722819057
128,yuzhno-kurilsk,44.0306,145.8556,145.8556,99,100,2.3,RU,1722819129
129,priozersk,61.0393,30.1291,30.1291,91,55,2.07,RU,1722819130
130,walvis bay,-22.9575,14.5053,14.5053,79,2,6.04,NA,1722819133
131,ta`u,-14.2336,-169.5144,-169.5144,64,100,1.9,AS,1722819134
132,marconia,40.3628,16.6876,16.6876,69,20,2.94,IT,1722819135
133,essaouira,31.5125,-9.77,-9.77,88,0,2.06,MA,1722819136
134,st. john's,47.5649,-52.7093,-52.7093,95,75,6.69,CA,1722818717
135,likasi,-10.9814,26.7333,26.7333,30,0,1.29,CD,1722819139
136,crane,31.3974,-102.3501,-102.3501,31,84,7.97,US,1722819104
137,vikulovo,56.8167,70.6107,70.6107,94,76,1.74,RU,1722819141
138,laojunmiao,39.8333,97.7333,97.7333,17,95,0.86,CN,1722819142
139,reggane,26.7158,0.1714,0.1714,10,54,3.7,DZ,1722819144
140,el bauga,18.262,33.9081,33.9081,53,100,3.84,SD,1722819145
141,cascais,38.6979,-9.4215,-9.4215,76,0,6.71,PT,1722819146
142,port elizabeth,-33.918,25.5701,25.5701,57,0,7.72,ZA,1722818991
143,laguna,38.421,-121.4238,-121.4238,19,0,6.17,US,1722819148
144,shalqar,47.8333,59.6,59.6,35,96,2.8,KZ,1722819150
145,ghat,24.9647,10.1728,10.1728,13,0,1.77,LY,1722819151
146,ati,13.2154,18.3353,18.3353,91,100,4.71,TD,1722819152
147,flying fish cove,-10.4217,105.6791,105.6791,88,75,3.6,CX,1722818862
148,iskateley,67.6803,53.1512,53.1512,74,89,6.33,RU,1722819154
149,coquimbo,-29.9533,-71.3436,-71.3436,73,75,2.06,CL,1722819156
150,chonchi,-42.6128,-73.8092,-73.8092,98,100,2.41,CL,1722819157
151,queenstown,-31.8976,26.8753,26.8753,81,68,2.52,ZA,1722819158
152,bilibino,68.0546,166.4372,166.4372,58,100,3.74,RU,1722819159
153,uglegorsk,49.0833,142.0333,142.0333,61,51,2.04,RU,1722819160
154,lago da pedra,-4.3333,-45.1667,-45.1667,41,0,1.66,BR,1722819136
155,chui,-33.6971,-53.4616,-53.4616,84,100,2.31,UY,1722819164
156,naze,28.3667,129.4833,129.4833,72,15,6.71,JP,1722819155
157,primorskiy,43.0983,131.5875,131.5875,93,100,5.65,RU,1722819166
158,aldinga beach,-35.2793,138.4604,138.4604,78,99,2.43,AU,1722819168
159,sinop,41.7711,34.8709,34.8709,55,42,1.04,TR,1722819066
160,el porvenir,13.7617,-87.3458,-87.3458,91,100,1.34,HN,1722819170
161,maxixe,-23.8597,35.3472,35.3472,77,54,4.92,MZ,1722819171
162,port sudan,19.6175,37.2164,37.2164,52,100,4.62,SD,1722819172
163,orumiyeh,37.5527,45.0761,45.0761,52,0,3.09,IR,1722819174
164,madalena,41.2162,-8.3345,-8.3345,86,0,0.85,PT,1722819175
165,nuriootpa,-34.4833,139.0,139.0,69,91,1.22,AU,1722819176
166,badiyah,22.45,58.8,58.8,56,100,1.76,OM,1722819177
167,margaret river,-33.95,115.0667,115.0667,78,98,6.85,AU,1722819179
168,waddan,29.1614,16.139,16.139,27,0,4.87,LY,1722819180
169,parnu,58.3859,24.4971,24.4971,100,100,1.03,EE,1722819181
170,rongelap,11.1635,166.8941,166.8941,78,73,6.46,MH,1722819182
171,boone,39.0334,-92.3335,-92.3335,55,7,0.45,US,1722819183
172,ust-nera,64.5667,143.2,143.2,52,43,1.8,RU,1722819185
173,khairpur nathan shah,27.0936,67.7337,67.7337,76,100,3.53,PK,1722819186
174,saint-francois,46.4154,3.9054,3.9054,100,0,1.54,FR,1722819036
175,evanston,42.0411,-87.6901,-87.6901,60,40,1.79,US,1722819188
176,kingston,17.997,-76.7936,-76.7936,70,20,7.72,JM,1722818952
177,kenai,60.5544,-151.2583,-151.2583,59,0,2.57,US,1722819076
178,rubiataba,-15.1644,-49.8033,-49.8033,37,0,2.03,BR,1722819192
179,west island,-12.1568,96.8225,96.8225,88,100,2.57,CC,1722819193
180,acajutla,13.5928,-89.8275,-89.8275,78,30,2.07,SV,1722819194
181,kimitsu,35.3253,139.8911,139.8911,63,0,1.07,JP,1722819174
182,nemuro,43.3236,145.575,145.575,100,100,3.67,JP,1722819197
183,constantia,44.1833,28.65,28.65,72,5,4.22,RO,1722819007
184,saint-jean-de-monts,46.7833,-2.0667,-2.0667,81,0,1.59,FR,1722819199
185,abuyog,10.6667,125.05,125.05,75,100,1.78,PH,1722819200
186,puerto carreno,6.189,-67.4859,-67.4859,83,100,1.25,CO,1722819180
187,laurentides,46.4334,-74.9826,-74.9826,65,77,1.87,CA,1722819203
188,hun,29.1268,15.9477,15.9477,24,0,4.09,LY,1722819204
189,kavaratti,10.5669,72.642,72.642,81,100,4.62,IN,1722819205
190,kapuskasing,49.4169,-82.4331,-82.4331,45,40,5.14,CA,1722818932
191,hadibu,12.65,54.0333,54.0333,83,100,9.91,YE,1722818958
192,alice springs,-23.7,133.8833,133.8833,87,100,3.09,AU,1722819050
193,olyokminsk,60.3736,120.4264,120.4264,97,100,2.68,RU,1722819210
194,sitka,57.0531,-135.33,-135.33,36,0,3.09,US,1722819143
195,navarre,30.4016,-86.8636,-86.8636,68,0,6.17,US,1722819212
196,dudinka,69.4058,86.1778,86.1778,56,0,9.22,RU,1722819213
197,murzuq,25.9155,13.9184,13.9184,15,0,5.11,LY,1722819215
198,howard springs,-12.497,131.047,131.047,86,31,3.36,AU,1722819008
199,bredasdorp,-34.5322,20.0403,20.0403,69,18,4.66,ZA,1722819217
200,barra de santo antonio,-9.4047,-35.5072,-35.5072,72,21,6.49,BR,1722819218
201,bay roberts,47.5999,-53.2648,-53.2648,99,100,3.95,CA,1722819219
202,fort st. john,56.2499,-120.8529,-120.8529,88,75,3.09,CA,1722819221
203,talnakh,69.4865,88.3972,88.3972,54,0,5.41,RU,1722819038
204,guaratuba,-25.8828,-48.5747,-48.5747,96,99,2.88,BR,1722819223
205,takhatgarh,25.3333,73.0,73.0,91,100,4.7,IN,1722819226
206,panjab,34.388,67.0233,67.0233,45,0,2.02,AF,1722819227
207,pho chai,16.3283,103.7703,103.7703,82,66,3.26,TH,1722819228
208,namtsy,62.7161,129.6658,129.6658,34,100,5.55,RU,1722819229
209,arar,30.9753,41.0381,41.0381,17,0,5.14,SA,1722819230
210,castillos,-34.1667,-53.8333,-53.8333,83,99,2.03,UY,1722819162
211,saudarkrokur,65.7461,-19.6394,-19.6394,79,100,5.47,IS,1722819233
212,darab,28.7519,54.5444,54.5444,21,47,0.86,IR,1722819234
213,conception bay south,47.4999,-52.9981,-52.9981,96,100,4.43,CA,1722819235
214,san patricio,28.017,-97.5169,-97.5169,58,5,5.07,US,1722819020
215,matnog,12.5878,124.0875,124.0875,81,89,7.21,PH,1722819238
216,kerikeri,-35.2268,173.9474,173.9474,56,40,2.05,NZ,1722819239
217,tralee,52.2704,-9.7026,-9.7026,98,100,2.75,IE,1722819240
218,utrik,11.2278,169.8474,169.8474,80,39,6.51,MH,1722819241
219,ain sefra,32.75,-0.5833,-0.5833,15,100,1.04,DZ,1722819243
220,filingue,14.3521,3.3168,3.3168,71,100,4.63,NE,1722819244
221,weno,7.4515,151.8468,151.8468,79,40,3.09,FM,1722819245
222,amahai,-3.3333,128.9167,128.9167,90,100,2.42,ID,1722819247
223,tshela,-4.9833,12.9333,12.9333,93,100,0.53,CD,1722819249
224,nizhniy odes,63.6445,54.856,54.856,97,82,2.74,RU,1722819250
225,smidovich,48.6,133.8167,133.8167,85,100,4.47,RU,1722819252
226,tobelo,1.7284,128.0095,128.0095,77,100,1.84,ID,1722819254
227,hirara,24.8,125.2833,125.2833,84,75,5.66,JP,1722819255
228,parabel',58.6978,81.4825,81.4825,94,100,1.61,RU,1722819256
229,uzgen,40.7699,73.3007,73.3007,33,0,2.25,KG,1722819257
230,castletown,53.0281,-9.0686,-9.0686,92,100,6.44,IE,1722819258
231,peace river,56.2501,-117.286,-117.286,77,100,5.66,CA,1722819260
232,ca mau,9.1769,105.15,105.15,75,100,1.54,VN,1722819261
233,shimoda,34.6667,138.95,138.95,68,0,2.14,JP,1722819262
234,tabou,4.423,-7.3528,-7.3528,84,100,2.58,CI,1722819263
235,geraldton,-28.7667,114.6,114.6,87,0,4.63,AU,1722819041
236,okhotsk,59.3833,143.3,143.3,64,98,2.55,RU,1722819266
237,kushk,33.2957,61.9522,61.9522,19,0,2.63,AF,1722819267
238,buhi,13.4333,123.5167,123.5167,86,99,2.71,PH,1722819268
239,vila franca do campo,37.7167,-25.4333,-25.4333,90,2,1.69,PT,1722819136
240,mogocha,53.7333,119.7667,119.7667,97,100,1.44,RU,1722819272
241,georgetown,5.4112,100.3354,100.3354,78,20,1.03,MY,1722819273
242,san juan,-31.5375,-68.5364,-68.5364,25,1,0.38,AR,1722819169
243,mejit,10.2753,170.8646,170.8646,79,21,6.68,MH,1722819275
244,gainesville,29.6516,-82.3248,-82.3248,60,100,6.17,US,1722818849
245,karaton,-6.3424,106.1045,106.1045,79,7,0.55,ID,1722819278
246,caucete,-31.6518,-68.2811,-68.2811,28,0,1.25,AR,1722819056
247,nyurba,63.2842,118.3319,118.3319,47,19,3.28,RU,1722819280
248,katsuura,35.1333,140.3,140.3,72,0,2.34,JP,1722819281
249,paungde,18.4833,95.5,95.5,96,100,2.92,MM,1722819283
250,puerto baquerizo moreno,-0.9,-89.6,-89.6,85,26,5.63,EC,1722819164
251,gadzhiyevo,69.2551,33.3362,33.3362,88,3,0.83,RU,1722819285
252,kamyzyak,46.11,48.0736,48.0736,73,0,1.0,RU,1722819286
253,lekki,6.3607,4.8333,4.8333,94,41,1.37,NG,1722819287
254,tura,25.5198,90.2201,90.2201,94,100,1.46,IN,1722818940
255,klyuchi,52.2667,79.1667,79.1667,65,31,3.12,RU,1722819263
256,bom jardim,-7.7958,-35.5872,-35.5872,97,66,2.25,BR,1722819291
257,alaghsas,17.0187,8.0168,8.0168,80,91,7.62,NE,1722819292
258,port lincoln,-34.7333,135.8667,135.8667,70,8,1.86,AU,1722818977
259,lompoc,34.6391,-120.4579,-120.4579,75,0,5.66,US,1722818931
260,luau,-10.7073,22.2247,22.2247,32,4,1.43,AO,1722819297
261,avarua,-21.2078,-159.775,-159.775,69,20,3.6,CK,1722818928
262,west side highway,46.184,-122.9172,-122.9172,61,0,1.79,US,1722819299
263,sirte,31.2089,16.5887,16.5887,50,0,4.81,LY,1722819301
264,shevchenko,48.5,35.0,35.0,80,78,4.01,UA,1722819302
265,pisco,-13.7,-76.2167,-76.2167,88,0,3.6,PE,1722819011
266,tazovsky,67.4667,78.7,78.7,68,97,5.87,RU,1722819291
267,deder,9.3167,41.45,41.45,82,98,2.22,ET,1722819305
268,custodia,-8.0875,-37.6431,-37.6431,85,14,4.16,BR,1722819307
269,bonthe,7.5264,-12.505,-12.505,85,100,2.17,SL,1722819150
270,masterton,-40.9597,175.6575,175.6575,69,100,1.75,NZ,1722819309
271,chibougamau,49.9168,-74.3659,-74.3659,51,0,3.09,CA,1722819310
272,shiguai,40.7058,110.2856,110.2856,43,6,0.95,CN,1722819312
273,al bawiti,28.3492,28.8659,28.8659,33,60,2.38,EG,1722819313
274,loudun,47.0079,0.083,0.083,81,93,1.66,FR,1722819314
275,puerto aysen,-45.4,-72.7,-72.7,99,100,1.38,CL,1722818892
276,new norfolk,-42.7826,147.0587,147.0587,52,7,3.7,AU,1722818957
277,nantucket,41.2835,-70.0995,-70.0995,91,0,6.69,US,1722818651
278,kittila,67.6647,24.8936,24.8936,93,0,1.03,FI,1722819319
279,robbah,33.2797,6.9098,6.9098,25,0,4.88,DZ,1722819321
280,carnarvon,-24.8667,113.6333,113.6333,46,0,4.03,AU,1722819322
281,alotau,-10.3069,150.4462,150.4462,90,100,3.03,PG,1722819324
282,bosaso,11.2842,49.1816,49.1816,40,100,7.62,SO,1722819049
283,huancavelica,-12.7667,-74.9833,-74.9833,83,88,0.9,PE,1722819327
284,guerrero negro,27.9769,-114.0611,-114.0611,72,17,6.44,MX,1722818790
285,mahabad,36.7631,45.7222,45.7222,57,0,1.91,IR,1722819331
286,tual,-5.6667,132.75,132.75,85,86,8.95,ID,1722819332
287,fremont,37.5483,-121.9886,-121.9886,64,0,7.2,US,1722819333
288,turriff,57.5384,-2.4593,-2.4593,95,100,6.23,GB,1722819334
289,rio claro,-22.4114,-47.5614,-47.5614,60,56,2.62,BR,1722819335
290,pagar alam,-4.0167,103.2667,103.2667,84,5,0.3,ID,1722819337
291,nouadhibou,20.931,-17.0347,-17.0347,88,40,4.63,MR,1722819085
292,kabalo,-6.05,26.9167,26.9167,31,22,1.03,CD,1722819339
293,kingscliff,-28.2667,153.5667,153.5667,60,99,3.6,AU,1722819340
294,pimenta bueno,-11.6725,-61.1936,-61.1936,38,0,1.71,BR,1722819341
295,la passe,45.5549,-0.8967,-0.8967,91,0,2.84,FR,1722819343
296,manali,13.1667,80.2667,80.2667,96,99,3.5,IN,1722819344
297,punxsutawney,40.9437,-78.9709,-78.9709,83,0,1.41,US,1722819345
298,trincomalee,8.5711,81.2335,81.2335,84,15,5.44,LK,1722819346
299,mareeba,-17.0,145.4333,145.4333,81,38,3.66,AU,1722819347
300,nicoya,10.1483,-85.452,-85.452,96,100,1.03,CR,1722819349
301,brookings,44.3114,-96.7984,-96.7984,94,75,4.12,US,1722818965
302,novosokol'niki,56.3463,30.1578,30.1578,96,24,1.83,RU,1722819351
303,gaigeturi,33.4644,126.3183,126.3183,70,20,4.12,KR,1722819352
304,lhokseumawe,5.1801,97.1507,97.1507,80,100,1.3,ID,1722819353
305,pacific grove,36.6177,-121.9166,-121.9166,85,75,4.12,US,1722819355
306,nar'yan-mar,67.6713,53.087,53.087,74,94,6.35,RU,1722819120
307,preobrazheniye,42.9019,133.9064,133.9064,70,99,3.31,RU,1722819357
308,mili,6.0815,171.735,171.735,77,34,6.35,MH,1722819344
309,salalah,17.0151,54.0924,54.0924,94,100,1.03,OM,1722819132
310,arkhangel'sk,64.5401,40.5433,40.5433,100,75,3.0,RU,1722819361
311,thompson,55.7435,-97.8558,-97.8558,35,40,4.63,CA,1722818877
312,codrington,-38.2667,141.9667,141.9667,56,7,2.91,AU,1722819364
313,pozuelo de alarcon,40.4329,-3.8134,-3.8134,27,0,5.36,ES,1722819365
314,floro,61.5996,5.0328,5.0328,88,100,2.57,NO,1722819366
315,natal,-5.795,-35.2094,-35.2094,88,20,3.09,BR,1722818684
316,sarina,-21.4333,149.2167,149.2167,1,99,4.04,AU,1722819369
317,vadso,70.0744,29.7487,29.7487,100,100,5.14,NO,1722819370
318,enshi,30.3,109.4833,109.4833,87,100,0.15,CN,1722819371
319,novaya igirma,57.1334,103.9112,103.9112,55,2,1.55,RU,1722819372
320,belokurikha,51.9959,84.9896,84.9896,68,100,1.63,RU,1722819373
321,weyburn,49.6668,-103.8511,-103.8511,49,100,8.23,CA,1722819375
322,megion,61.0296,76.1136,76.1136,87,100,0.8,RU,1722819376
323,gamba,-2.65,10.0,10.0,79,92,2.23,GA,1722819377
324,saldanha,-33.0117,17.9442,17.9442,60,10,3.1,ZA,1722819378
325,toguchin,55.2353,84.3858,84.3858,90,100,2.09,RU,1722819380
326,luang namtha,20.9497,101.4011,101.4011,100,100,1.03,LA,1722819382
327,acapulco de juarez,16.8634,-99.8901,-99.8901,70,75,1.54,MX,1722818762
328,muisne,0.6,-80.0333,-80.0333,86,93,5.22,EC,1722819384
329,wolmaransstad,-27.1974,25.9831,25.9831,42,100,4.46,ZA,1722819387
330,orsa,54.5153,30.4053,30.4053,89,4,1.81,BY,1722819388
331,"laikit, laikit ii (dimembe)",1.4792,124.9735,124.9735,65,20,2.57,ID,1722819389
332,san luis de la loma,17.2706,-100.8939,-100.8939,88,100,3.14,MX,1722819390
333,visby,57.6409,18.296,18.296,100,0,2.06,SE,1722819391
334,muli,2.9167,73.5667,73.5667,70,100,5.58,MV,1722819393
335,kalmunai,7.4167,81.8167,81.8167,83,15,1.85,LK,1722819349
336,scarborough,54.2797,-0.4044,-0.4044,84,66,0.89,GB,1722818906
337,malanville,11.8685,3.3899,3.3899,91,97,2.56,BJ,1722819396
338,arraial do cabo,-22.9661,-42.0278,-42.0278,90,0,11.11,BR,1722818857
339,tomatlan,19.9333,-105.25,-105.25,78,69,1.13,MX,1722819399
340,magadan,59.5667,150.8,150.8,71,2,1.82,RU,1722819400
341,coahuayana de hidalgo,18.7,-103.6583,-103.6583,83,100,1.49,MX,1722819402
342,tambacounda,13.7539,-13.7586,-13.7586,100,20,1.03,SN,1722819071
343,ola,59.5833,151.2833,151.2833,74,0,2.23,RU,1722819392
344,copala,16.65,-98.9833,-98.9833,84,98,1.66,MX,1722819406
345,freetown,8.484,-13.2299,-13.2299,83,75,3.6,SL,1722818975
346,el alto,-4.2714,-81.2147,-81.2147,84,40,7.73,PE,1722819408
347,kapa'a,22.0752,-159.319,-159.319,70,20,6.17,US,1722819115
348,okha,53.5739,142.9478,142.9478,61,100,7.8,RU,1722819113
349,senica,48.6792,17.367,17.367,90,77,1.19,SK,1722819412
350,shahrak,34.1074,64.3052,64.3052,31,0,1.95,AF,1722819413
351,hafar al-batin,28.4328,45.9708,45.9708,16,0,3.09,SA,1722819414
352,mogadishu,2.0371,45.3438,45.3438,76,100,7.91,SO,1722819416
353,cadale,2.7603,46.3222,46.3222,76,76,8.66,SO,1722819417
354,harper,4.375,-7.7169,-7.7169,83,100,3.09,LR,1722819418
355,eyl,7.9803,49.8164,49.8164,78,100,9.48,SO,1722819419
356,sisimiut,66.9395,-53.6735,-53.6735,76,100,0.83,GL,1722818979
357,talcahuano,-36.7167,-73.1167,-73.1167,82,100,12.35,CL,1722819318
358,kill devil hills,36.0307,-75.676,-75.676,88,0,6.17,US,1722819423
359,tsiombe,-25.3,45.4833,45.4833,93,1,1.48,MG,1722819349
360,west memphis,35.1465,-90.1845,-90.1845,51,0,3.6,US,1722819425
361,ulsteinvik,62.3432,5.8487,5.8487,92,75,1.06,NO,1722819426
362,sanming,26.2486,117.6186,117.6186,65,100,0.41,CN,1722819428
363,newman,37.3138,-121.0208,-121.0208,15,2,4.18,US,1722819194
364,kegen,43.0197,79.2203,79.2203,52,17,1.99,KZ,1722819430
365,tikhvin,59.6451,33.5294,33.5294,95,43,1.23,RU,1722819431
366,saint-pierre,-21.3393,55.4781,55.4781,55,40,3.6,RE,1722819400
367,tarko-sale,64.9225,77.785,77.785,56,95,9.16,RU,1722819434
368,broken hill,-31.95,141.4333,141.4333,83,100,3.58,AU,1722819015
369,plettenberg bay,-34.0527,23.3716,23.3716,69,3,4.83,ZA,1722819436
370,topolobampo,25.6,-109.05,-109.05,58,8,2.56,MX,1722819438
371,lauro de freitas,-12.8944,-38.3272,-38.3272,69,40,3.09,BR,1722819237
372,erdenet,49.0333,104.0833,104.0833,82,88,1.72,MN,1722819440
373,fortuna,40.5982,-124.1573,-124.1573,95,100,3.6,US,1722819162
374,syumsi,57.1111,51.6149,51.6149,82,100,1.93,RU,1722819442
375,nowa sarzyna,50.3209,22.3446,22.3446,80,100,1.99,PL,1722819445
376,prince george,53.9166,-122.753,-122.753,49,0,6.69,CA,1722819004
377,shingu,33.7333,135.9833,135.9833,70,14,2.02,JP,1722819447
378,vylkove,45.4021,29.586,29.586,72,32,3.66,UA,1722819448
379,khanty-mansiysk,61.0042,69.0019,69.0019,94,100,0.0,RU,1722819449
380,fairfield glade,36.0004,-84.8863,-84.8863,88,0,0.0,US,1722819451
381,knyaze-volkonskoye,48.4642,135.4567,135.4567,73,100,3.76,RU,1722819452
382,mercedes,-34.6515,-59.4307,-59.4307,68,4,3.29,AR,1722819453
383,sumbawanga,-7.9667,31.6167,31.6167,35,1,0.85,TZ,1722819454
384,grand falls-windsor,48.9332,-55.6649,-55.6649,87,98,2.71,CA,1722819455
385,ghanzi,-21.5667,21.7833,21.7833,20,0,7.07,BW,1722819313
386,tobol'sk,58.2,68.2667,68.2667,88,9,0.82,RU,1722819458
387,al wajh,26.2455,36.4525,36.4525,79,0,2.06,SA,1722819460
388,anapa,44.8908,37.3239,37.3239,94,40,3.0,RU,1722819461
389,sogndal,61.2283,7.1003,7.1003,94,100,0.0,NO,1722819463
390,newala kisimani,-10.95,39.2833,39.2833,97,4,1.41,TZ,1722819464
391,tanjung selor,2.8372,117.3642,117.3642,91,100,1.55,ID,1722819465
392,vilyuchinsk,52.9306,158.4028,158.4028,73,100,2.35,RU,1722819273
393,inongo,-1.95,18.2667,18.2667,85,100,2.29,CD,1722819469
394,magistral'nyy,56.1725,107.4458,107.4458,59,22,2.65,RU,1722819470
395,wajir,1.7471,40.0573,40.0573,75,25,6.33,KE,1722819471
396,upata,8.0086,-62.3989,-62.3989,96,100,1.4,VE,1722819472
397,santa elena de uairen,4.6167,-61.1333,-61.1333,91,100,0.85,VE,1722819473
398,belmonte,-15.8631,-38.8828,-38.8828,88,59,2.4,BR,1722819475
399,el calafate,-50.3408,-72.2768,-72.2768,94,96,2.82,AR,1722819325
400,hami,42.8,93.45,93.45,17,98,3.1,CN,1722819477
401,mizdah,31.4451,12.9801,12.9801,67,2,4.71,LY,1722819478
402,valparaiso,-33.0393,-71.6273,-71.6273,68,75,1.54,CL,1722819465
403,gumdag,39.2061,54.5906,54.5906,56,0,3.87,TM,1722819481
404,nagqu,31.5,92.0,92.0,70,0,1.22,CN,1722819482
405,bardai,11.65,7.2333,7.2333,92,88,3.77,NG,1722819231
406,tindwari,25.6167,80.5333,80.5333,82,6,3.07,IN,1722819485
407,puerto libertad,-25.9164,-54.6209,-54.6209,54,53,1.78,AR,1722819487
408,shemysheyka,52.892,45.3928,45.3928,98,100,1.13,RU,1722819488
409,ancud,-41.8697,-73.8203,-73.8203,91,100,8.32,CL,1722819310
410,kourou,5.1552,-52.6478,-52.6478,84,79,4.43,GF,1722819490
411,nelson bay,-32.7167,152.15,152.15,76,100,0.89,AU,1722819492
412,pechora,65.1472,57.2244,57.2244,86,100,3.26,RU,1722819494
413,la quiaca,-22.1024,-65.593,-65.593,14,0,2.1,AR,1722819495
414,ulladulla,-35.35,150.4667,150.4667,49,100,2.24,AU,1722819270
415,malabar,-33.9667,151.25,151.25,74,0,3.09,AU,1722819499
416,batouri,4.4333,14.3667,14.3667,99,100,1.22,CM,1722819500
417,la bresse,47.9997,6.865,6.865,97,100,0.51,FR,1722819501
418,cabo san lucas,22.8909,-109.9124,-109.9124,62,19,5.01,MX,1722819502
419,lock haven,41.137,-77.4469,-77.4469,80,1,1.27,US,1722819503
420,rio preto da eva,-2.6994,-59.6997,-59.6997,49,57,1.05,BR,1722819505
421,kenora,49.8167,-94.4337,-94.4337,55,75,2.06,CA,1722819506
422,tazacorte,28.629,-17.9293,-17.9293,94,75,6.17,ES,1722819077
423,union de san antonio,21.1,-101.9667,-101.9667,40,78,2.36,MX,1722819508
424,kharp,66.8014,65.8081,65.8081,57,100,5.9,RU,1722819509
425,kailua-kona,19.6406,-155.9956,-155.9956,79,75,5.14,US,1722819298
426,labytnangi,66.6572,66.4183,66.4183,61,100,9.14,RU,1722819156
427,berbera,10.4396,45.0143,45.0143,51,82,3.51,SO,1722818995
428,santa ana,33.7456,-117.8678,-117.8678,41,20,4.12,US,1722819515
429,hanceville,34.0607,-86.7675,-86.7675,67,79,2.31,US,1722819517
430,narasannapeta,18.4167,84.05,84.05,86,99,1.33,IN,1722819518
431,cinisi,38.1562,13.1073,13.1073,78,20,3.09,IT,1722819519
432,tamarin,-20.3256,57.3706,57.3706,96,2,2.41,MU,1722819523
433,pama,11.2497,0.7075,0.7075,93,49,0.89,BF,1722819525
434,surgut,61.25,73.4167,73.4167,100,40,0.0,RU,1722819526
435,fisterra,42.9049,-9.2629,-9.2629,93,0,4.15,ES,1722819528
436,severoural'sk,60.1533,59.952,59.952,99,98,1.54,RU,1722819529
437,alta,69.9689,23.2717,23.2717,75,9,26.82,NO,1722819530
438,bria,6.5423,21.9863,21.9863,98,100,1.6,CF,1722819531
439,den burg,53.0542,4.7972,4.7972,77,100,2.06,NL,1722819532
440,villafranca de los barros,38.5614,-6.3381,-6.3381,29,0,1.89,ES,1722819534
441,kasulu,-4.5767,30.1025,30.1025,36,77,1.29,TZ,1722819535
442,estrela,-28.0611,-50.9383,-50.9383,97,100,2.18,BR,1722819536
443,moscow,55.7522,37.6156,37.6156,77,0,2.52,RU,1722819414
444,conde,-7.2597,-34.9075,-34.9075,100,75,0.0,BR,1722819538
445,taltal,-25.4,-70.4833,-70.4833,79,1,1.06,CL,1722819540
446,mugia,43.1041,-9.2179,-9.2179,93,2,2.91,ES,1722819541
447,auki,-8.7676,160.7034,160.7034,95,100,2.9,SB,1722819542
448,saint-philippe,-21.3585,55.7679,55.7679,76,31,2.52,RE,1722819106
449,kayangel,8.0823,134.7173,134.7173,74,17,5.7,PW,1722819545
450,dolores,-36.3132,-57.6792,-57.6792,55,99,3.14,AR,1722819546
451,cabedelo,-6.9811,-34.8339,-34.8339,84,38,6.22,BR,1722819530
452,asan-maina village,13.4722,144.7165,144.7165,80,20,4.92,GU,1722819548
453,porto recanati,43.4365,13.6613,13.6613,80,100,1.97,IT,1722819550
454,karatau,43.1667,70.4667,70.4667,28,0,3.4,KZ,1722819551
455,gouyave,12.1646,-61.7296,-61.7296,83,20,3.09,GD,1722819552
456,korsakov,46.6328,142.7813,142.7813,79,89,2.11,RU,1722819553
457,cartagena,10.3997,-75.5144,-75.5144,84,40,2.57,CO,1722819398
458,burutu,5.3509,5.5076,5.5076,84,81,2.24,NG,1722819556
459,dalhart,36.0595,-102.5133,-102.5133,24,0,5.66,US,1722819557
460,labrador city,52.9463,-66.9114,-66.9114,70,40,4.92,CA,1722819414
461,birobidzhan,48.8,132.95,132.95,75,100,2.66,RU,1722819559
462,hammerfest,70.6634,23.6821,23.6821,63,0,2.57,NO,1722819561
463,guiren,33.6697,118.1889,118.1889,68,0,2.55,CN,1722819562
464,tadine,-21.55,167.8833,167.8833,53,10,6.61,NC,1722819486
465,mutuali,-14.8706,37.0044,37.0044,45,43,1.03,MZ,1722819564
466,motueka,-41.1333,173.0167,173.0167,55,14,1.33,NZ,1722819562
467,nova sintra,14.8667,-24.7167,-24.7167,78,100,2.42,CV,1722819567
468,aflou,34.1128,2.1023,2.1023,21,0,1.07,DZ,1722819568
469,al wakrah,24.85,51.3333,51.3333,32,15,4.99,QA,1722819300
470,qarqaraly,49.4058,75.4742,75.4742,56,31,1.93,KZ,1722819570
471,tanout,14.9709,8.8879,8.8879,73,99,6.85,NE,1722819571
472,lucapa,-8.4192,20.7447,20.7447,29,100,0.71,AO,1722819573
473,uliastay,47.7417,96.8444,96.8444,43,0,0.98,MN,1722819574
474,yangiyul,41.112,69.0471,69.0471,23,64,2.18,UZ,1722819575
475,quang ngai,15.1167,108.8,108.8,70,14,1.52,VN,1722819576
476,brisas de zicatela,15.8369,-97.0419,-97.0419,79,99,1.92,MX,1722819579
477,ubinskoye,55.3068,79.6802,79.6802,91,100,2.8,RU,1722819580
478,mil'kovo,55.6078,37.7956,37.7956,72,0,2.61,RU,1722819582
479,fort riley north,39.1108,-96.8139,-96.8139,56,0,5.08,US,1722819584
480,puerto armuelles,8.2833,-82.8667,-82.8667,87,100,1.79,PA,1722819586
481,vilyuysk,63.7553,121.6247,121.6247,37,62,5.16,RU,1722819587
482,polyarnyye zori,67.3661,32.4981,32.4981,80,25,1.7,RU,1722819588
483,port moresby,-9.4431,147.1797,147.1797,65,20,5.14,PG,1722819589
484,lusambo,-4.9667,23.45,23.45,38,2,0.73,CD,1722819591
485,guatrache,-37.6678,-63.5302,-63.5302,40,100,7.11,AR,1722819592
486,port alfred,-33.5906,26.891,26.891,60,1,10.61,ZA,1722819282
487,khairagarh,26.95,77.8167,77.8167,87,65,6.11,IN,1722819594
488,dubbo,-32.25,148.6167,148.6167,76,100,3.6,AU,1722819588
489,calama,-22.4667,-68.9333,-68.9333,26,0,1.54,CL,1722819597
490,san ramon,37.7799,-121.978,-121.978,60,0,6.17,US,1722819598
491,west sayville,40.7279,-73.0976,-73.0976,93,75,1.54,US,1722819599
492,revda,56.801,59.9303,59.9303,98,100,2.0,RU,1722819602
493,itapuranga,-15.5622,-49.9486,-49.9486,38,0,1.65,BR,1722819603
494,puerto lempira,15.2667,-83.7667,-83.7667,66,20,3.6,HN,1722819604
495,churapcha,62.0025,132.4325,132.4325,44,100,5.47,RU,1722819605
496,mindelo,16.8901,-24.9804,-24.9804,74,40,1.54,CV,1722819608
497,arpacay,40.8487,43.3291,43.3291,67,3,1.57,TR,1722819609
498,cobija,-11.0267,-68.7692,-68.7692,51,73,0.99,BO,1722819610
499,cantemir,46.2781,28.2008,28.2008,76,10,1.62,MD,1722819611
500,la romana,18.4273,-68.9728,-68.9728,94,40,3.09,DO,1722819604
501,sao miguel do araguaia,-13.275,-50.1628,-50.1628,33,0,2.38,BR,1722819615
502,kralendijk,12.15,-68.2667,-68.2667,74,40,6.69,BQ,1722819451
503,hasaki,35.7333,140.8333,140.8333,70,0,2.3,JP,1722819619
504,praya,14.9215,-23.5087,-23.5087,78,20,2.06,CV,1722819620
505,horta,38.5333,-28.6333,-28.6333,95,31,3.13,PT,1722819406
506,sur,22.5667,59.5289,59.5289,73,100,3.45,OM,1722819623
507,jiayuguan,39.8167,98.3,98.3,15,100,3.29,CN,1722819624
508,south hedland,-20.4089,118.5983,118.5983,55,0,7.2,AU,1722819625
509,keetmanshoop,-26.5833,18.1333,18.1333,91,15,3.07,NA,1722819626
510,luderitz,-26.6481,15.1594,15.1594,76,0,5.67,NA,1722819037
511,brooks,50.5834,-111.8851,-111.8851,39,100,1.54,CA,1722819607
512,waingapu,-9.6567,120.2641,120.2641,61,13,6.02,ID,1722819630
513,gresford,53.0854,-2.9706,-2.9706,84,22,1.34,GB,1722819631
514,mata-utu,-13.2816,-176.1745,-176.1745,73,100,3.1,WF,1722819145
515,yorkton,51.2167,-102.4677,-102.4677,60,0,2.57,CA,1722819634
516,benesov,49.7816,14.687,14.687,95,78,2.34,CZ,1722819635
517,taroa,8.7058,171.2275,171.2275,79,99,5.76,MH,1722819636
518,beloyarskiy,63.7119,66.6722,66.6722,97,17,2.02,RU,1722819637
519,tshabong,-26.05,22.45,22.45,80,100,5.06,BW,1722819638
520,chunskiy,56.0815,99.6342,99.6342,67,0,0.34,RU,1722819640
521,nuuk,64.1835,-51.7216,-51.7216,87,100,3.09,GL,1722819052
522,lydenburg,-25.0978,30.4597,30.4597,27,52,0.77,ZA,1722819642
523,fale old settlement,-9.3852,-171.2468,-171.2468,81,100,6.4,TK,1722819587
524,mo i rana,66.3128,14.1428,14.1428,79,40,0.51,NO,1722819645
525,kiffa,16.6166,-11.4045,-11.4045,67,34,4.47,MR,1722819646
526,arteche,12.2645,125.4048,125.4048,73,87,2.56,PH,1722819635
527,bubaque,11.2833,-15.8333,-15.8333,81,100,3.43,GW,1722819068
528,chibuto,-24.6867,33.5306,33.5306,35,5,4.27,MZ,1722819649
529,sarmiento,-45.5882,-69.07,-69.07,68,100,2.72,AR,1722819651
530,qui nhon,13.7667,109.2333,109.2333,63,80,1.07,VN,1722819652
531,mary,37.0,62.5,62.5,18,0,3.79,TM,1722819653
532,niafunke,15.9322,-3.9906,-3.9906,68,97,5.99,ML,1722819654
533,choele choel,-39.2667,-65.6833,-65.6833,37,100,2.54,AR,1722819655
534,krasnoturansk,54.3186,91.5639,91.5639,86,50,1.79,RU,1722819657
535,sinabang,2.4803,96.3801,96.3801,83,57,1.52,ID,1722819658
536,keflavik,64.0049,-22.5624,-22.5624,87,100,8.23,IS,1722819659
537,murgeni,46.2044,28.0197,28.0197,73,6,2.04,RO,1722819662
538,mantua,45.1667,10.7833,10.7833,82,100,0.89,IT,1722819663
539,kendari,-3.945,122.4989,122.4989,89,100,0.94,ID,1722819664
540,port saint john's,-31.6229,29.5448,29.5448,63,100,7.04,ZA,1722819666
541,box elder,41.5005,-112.8764,-112.8764,46,2,6.15,US,1722819667
542,galich,58.3797,42.3475,42.3475,98,85,1.73,RU,1722819668
543,mumbwa,-14.9783,27.0619,27.0619,27,0,2.1,ZM,1722819669
544,paratinga,-12.6906,-43.1842,-43.1842,51,2,5.09,BR,1722819670
545,robertsport,6.7533,-11.3686,-11.3686,86,100,2.73,LR,1722819672
546,tongchuanshi,35.0806,109.0897,109.0897,71,56,0.66,CN,1722819540
547,kavieng,-2.5744,150.7967,150.7967,73,100,4.55,PG,1722819674
548,dawesville,30.9224,-84.0091,-84.0091,92,75,3.09,US,1722819675
549,khandyga,62.6667,135.6,135.6,40,89,3.05,RU,1722819677
550,tromso,69.6496,18.957,18.957,77,0,0.0,NO,1722819348
551,tezu,27.9167,96.1667,96.1667,72,95,0.21,IN,1722819679
552,raduzhny,62.0961,77.475,77.475,92,100,1.91,RU,1722819680
553,kogalym,62.2654,74.4791,74.4791,79,100,0.83,RU,1722819681
554,zaysan,47.4667,84.8667,84.8667,37,90,2.66,KZ,1722819683
555,tyuratam,45.6507,63.3156,63.3156,33,100,0.21,KZ,1722819684
556,zhanibek,49.4167,46.85,46.85,33,42,5.37,KZ,1722819685
557,carbonear,47.7332,-53.2148,-53.2148,97,100,3.99,CA,1722819686
558,ladysmith,48.9829,-123.8194,-123.8194,44,20,1.03,CA,1722819687
559,igarka,67.4667,86.5833,86.5833,64,48,6.2,RU,1722819121
560,plastun,44.7561,136.2939,136.2939,54,100,2.18,RU,1722819159
561,borodino,55.9106,94.8983,94.8983,69,82,1.73,RU,1722819691
562,kzyltu,53.6364,72.3414,72.3414,79,87,3.93,KZ,1722819692
563,shiyan,32.6475,110.7781,110.7781,73,28,1.83,CN,1722819693
564,ostersund,63.1792,14.6357,14.6357,100,40,2.06,SE,1722819695
565,armacao de buzios,-22.7469,-41.8817,-41.8817,90,0,8.55,BR,1722819696
566,nadvoitsy,63.8667,34.3167,34.3167,97,56,3.18,RU,1722819697
567,akureyri,65.6835,-18.0878,-18.0878,71,75,4.63,IS,1722819552
568,tagta,41.6504,59.9164,59.9164,30,0,5.14,TM,1722819699
569,page,36.9147,-111.4558,-111.4558,22,28,3.58,US,1722819679
570,outjo,-20.1167,16.15,16.15,28,0,1.99,NA,1722819702
571,iraquara,-12.2486,-41.6194,-41.6194,87,93,2.89,BR,1722819703
572,uttar char fasson,22.2332,90.7132,90.7132,80,100,3.1,BD,1722819704
573,yaren,-0.5472,166.916,166.916,73,100,6.05,NR,1722819706
574,at taj,24.2049,23.2857,23.2857,23,43,4.33,LY,1722819707
575,gobabis,-22.45,18.9667,18.9667,40,0,5.36,NA,1722819709
576,novoselitskoye,44.7508,43.4369,43.4369,70,1,1.64,RU,1722819710
